[
    {
        "id": 1,
        "cat": "Театър",
        "name": "Русенски театър",
        "place": "Русенски театър",
        "latitude": "43.8481185",
        "longtitude": "25.9593535"
    },
    {
        "id": 2,
        "cat": "Образователен",
        "name": "Интеграл",
        "place": "хотел Космополитан",
        "latitude": "43.845224",
        "longtitude": "25.949408"
    },
    {
        "id": 3,
        "cat": "Образователен",
        "name": "InGame",
        "place": "Kaneff Center",
        "latitude": "43.8481185",
        "longtitude": "25.9593535"
    },
    {
        "id": 4,
        "cat": "Концерт",
        "name": "Русенска Филхармония",
        "place": "Ал. Възраждане 1",
        "latitude": "43.8495467",
        "longtitude": "25.9494625"
    },
    {
        "id": 5,
        "cat": "Концерт",
        "name": "Русенска опера",
        "place": "пл. Света Троица7",
        "latitude": "43.8480181",
        "longtitude": "25.9567303"
    },
    {
        "id": 6,
        "cat": "Концерт",
        "name": "Арена Русе",
        "place": "ул. 19-ти Февруари 2 ",
        "latitude": "43.8439563",
        "longtitude": "25.9443773"
    },
    {
        "id": 7,
        "cat": "Паметник",
        "name": "Сегсагинта Приста",
        "latitude": "43.8456986",
        "longtitude": "25.9462125"
    },
    {
        "id": 8,
        "cat": "Музей",
        "name": "Исторически музей",
        "latitude": "43.844004",
        "longtitude": "25.947618"
    },
    {
        "id": 9,
        "cat": "Паметник",
        "name": "Часовникът",
        "latitude": "43.8479347",
        "longtitude": "25.9504397"
    },
    {
        "id": 10,
        "cat": "Паметник",
        "name": "Ивановските скални църкви",
        "latitude": "43.637888",
        "longtitude": "26.067825"
    },
    {
        "id": 11,
        "cat": "Паметник",
        "name": "Freedom Square",
        "latitude": "43.8492693",
        "longtitude": "25.9514089"
    },
    {
        "id": 12,
        "cat": "Транспорт",
        "name": "Автогара Русе",
        "place": "Бул. \"Цар освободител\" 156",
        "latitude": "43.8350995",
        "longtitude": "25.9572709"
    },
    {
        "id": 13,
        "cat": "Транспорт",
        "name": "ЖП гара Русе",
        "place": "пл. \"Александър Стамболийски\" 1",
        "latitude": "43.835471",
        "longtitude": "25.9575284"
    },
    {
        "id": 14,
        "cat": "Аптека",
        "name": "Астра",
        "place": "ул. Александровска 106",
        "latitude": "43.8537326",
        "longtitude": "25.9598495"
    },
    {
        "id": 15,
        "cat": "Аптека",
        "name": "Оптима",
        "place": "бул. „Цар Освободител“ 12",
        "latitude": "43.8510682",
        "longtitude": "25.9572206"
    },
    {
        "id": 16,
        "cat": "Банка",
        "name": "FiBank",
        "place": "бул. „Цар Освободител“ 1-2",
        "latitude": "43.8518189",
        "longtitude": "25.9574974"
    },
    {
        "id": 17,
        "cat": "Банка",
        "name": "UniCredit Bulbank",
        "place": "пл.”Света Тройца” No 5",
        "latitude": "43.8518189",
        "longtitude": "25.9574974"
    },
    {
        "id": 18,
        "cat": "Кетъринг",
        "name": "Аспект",
        "place": "ул. Константин Илиев 5",
        "latitude": "43.8546074",
        "longtitude": "25.9619188"
    },
    {
        "id": 19,
        "cat": "Кетъринг",
        "name": "Хит",
        "place": "ул. Константин Иречек 12",
        "latitude": "43.846251",
        "longtitude": "25.9516667"
    },
    {
        "id": 20,
        "cat": "Доставки",
        "name": "Еконт",
        "place": "ул. „Захари Стоянов“ 16",
        "latitude": "43.8467985",
        "longtitude": "25.9809437"
    },
    {
        "id": 21,
        "cat": "Доставки",
        "name": "Спиди",
        "place": "ул. Тулча 15",
        "latitude": "43.8552852",
        "longtitude": "25.9775223"
    },
    {
        "id": 22,
        "cat": "Ресторант",
        "name": "Кръсникът",
        "place": "ул. „Студентска“ 7",
        "latitude": "43.8548401",
        "longtitude": "25.969238"
    },
    {
        "id": 23,
        "cat": "Ресторант",
        "name": "Planet Food",
        "place": "ул. „Янтра“ 12",
        "latitude": "43.8551821",
        "longtitude": "25.9692027"
    },
    {
        "id": 24,
        "cat": "Ресторант",
        "name": "Mario's",
        "place": "ул. \"Княжеска\" 16",
        "latitude": "43.8482118",
        "longtitude": "25.9481304"
    }
]