 [
  {
  "id": 4,
  "cat": "Транспорт",
  "name": "Автогара Русе",
  "place": "Бул. \"Цар освободител\" 156",
  "desk": "Транспорт от и за много дестинации в България и чужбина",
  "phone": "082 828 151",
  "latitude": "43.8350995",
  "longtitude": "25.9572709"
  },
  {
  "id": 5,
  "cat": "Транспорт",
  "name": "ЖП гара Русе",
  "place": "пл. \"Александър Стамболийски\" 1",
  "desk": "Транспорт от и за много дестинации в България и чужбина",
  "phone": "082 820 222",
  "latitude": "43.835471",
  "longtitude": "25.9575284"
  },
  {
  "id": 6,
  "cat": "Аптека",
  "name": "Астра",
  "place": "ул. Александровска 106",
  "desk": "Продажба на лекарства втора употреба",
  "phone": "082 845 114",
  "latitude": "43.8537326",
  "longtitude": "25.9598495"
  },
  {
  "id": 6,
  "cat": "Аптека",
  "name": "Оптима",
  "place": "бул. „Цар Освободител“ 12",
  "desk": "Продажба на лекарства втора употреба",
  "phone": "082 821 814",
  "latitude": "43.8510682",
  "longtitude": "25.9572206"
  },
  {
  "id": 8,
  "cat": "Банка",
  "name": "FiBank",
  "place": "бул. „Цар Освободител“ 1-2",
  "desk": "Банкови дела",
  "phone": "082 889 541",
  "latitude": "43.8518189",
  "longtitude": "25.9574974"
  },
  {
  "id": 8,
  "cat": "Банка",
  "name": "UniCredit Bulbank",
  "place": "пл.”Света Тройца” No 5",
  "desk": "Банкови дела",
  "phone": "082 818 258",
  "latitude": "43.8518189",
  "longtitude": "25.9574974"
  },
  {
  "id": 10,
  "cat": "Кетъринг",
  "name": "Аспект",
  "place": "ул. Константин Илиев 5",
  "desk": "Организиране на празненства и други работи",
  "phone": "088 594 8111",
  "latitude": "43.8546074",
  "longtitude": "25.9619188"
  },
  {
  "id": 10,
  "cat": "Кетъринг",
  "name": "Хит",
  "place": "ул. Константин Иречек 12",
  "desk": "Организиране на празненства и други работи",
  "phone": "082 828 848",
  "latitude": "43.846251",
  "longtitude": "25.9516667"
  },
  {
  "id": 12,
  "cat": "Доставки",
  "name": "Еконт",
  "place": "ул. „Захари Стоянов“ 16",
  "desk": "Доставки за страната и чужбина",
  "phone": "082 589 502",
  "latitude": "43.8467985",
  "longtitude": "25.9809437"
  },
  {
  "id": 12,
  "cat": "Доставки",
  "name": "Спиди",
  "place": "ул. Тулча 15",
  "desk": "Доставки за страната и чужбина",
  "phone": "0700 17 001",
  "latitude": "43.8552852",
  "longtitude": "25.9775223"
  }
  ]